{
  "cities": [
    {
      "name": "Montreal",
      "country": "Canada",
      "locale": "fr_CA",
      "latitude": 45.5044,
      "longitude": -73.5761,
      "region": "Quebec"
    },
    {
      "name": "Toronto",
      "country": "Canada",
      "locale": "en_CA",
      "latitude": 43.6532,
      "longitude": -79.3832,
      "region": "Ontario"
    },
    {
      "name": "Vancouver",
      "country": "Canada",
      "locale": "en_CA",
      "latitude": 49.2827,
      "longitude": -123.1207,
      "region": "British Columbia"
    },
    {
      "name": "Paris",
      "country": "France",
      "locale": "fr_FR",
      "latitude": 48.8566,
      "longitude": 2.3522,
      "region": "Île-de-France"
    },
    {
      "name": "Lyon",
      "country": "France",
      "locale": "fr_FR",
      "latitude": 45.7578,
      "longitude": 4.8320,
      "region": "Auvergne-Rhône-Alpes"
    },
    {
      "name": "Marseille",
      "country": "France",
      "locale": "fr_FR",
      "latitude": 43.2965,
      "longitude": 5.3698,
      "region": "Provence-Alpes-Côte d'Azur"
    },
    {
      "name": "London",
      "country": "United Kingdom",
      "locale": "en_GB",
      "latitude": 51.5074,
      "longitude": -0.1278,
      "region": "England"
    },
    {
      "name": "Manchester",
      "country": "United Kingdom",
      "locale": "en_GB",
      "latitude": 53.4808,
      "longitude": -2.2426,
      "region": "England"
    },
    {
      "name": "Birmingham",
      "country": "United Kingdom",
      "locale": "en_GB",
      "latitude": 52.4862,
      "longitude": -1.8904,
      "region": "England"
    },
    {
      "name": "New York",
      "country": "United States",
      "locale": "en_US",
      "latitude": 40.7128,
      "longitude": -74.0060,
      "region": "New York"
    },
    {
      "name": "Los Angeles",
      "country": "United States",
      "locale": "en_US",
      "latitude": 34.0522,
      "longitude": -118.2437,
      "region": "California"
    },
    {
      "name": "Chicago",
      "country": "United States",
      "locale": "en_US",
      "latitude": 41.8781,
      "longitude": -87.6298,
      "region": "Illinois"
    },
    {
      "name": "Houston",
      "country": "United States",
      "locale": "en_US",
      "latitude": 29.7604,
      "longitude": -95.3698,
      "region": "Texas"
    },
    {
      "name": "Phoenix",
      "country": "United States",
      "locale": "en_US",
      "latitude": 33.4484,
      "longitude": -112.0740,
      "region": "Arizona"
    },
    {
      "name": "Philadelphia",
      "country": "United States",
      "locale": "en_US",
      "latitude": 39.9526,
      "longitude": -75.1652,
      "region": "Pennsylvania"
    },
    {
      "name": "San Antonio",
      "country": "United States",
      "locale": "en_US",
      "latitude": 29.4241,
      "longitude": -98.4936,
      "region": "Texas"
    },
    {
      "name": "San Diego",
      "country": "United States",
      "locale": "en_US",
      "latitude": 32.7157,
      "longitude": -117.1611,
      "region": "California"
    },
    {
      "name": "Dallas",
      "country": "United States",
      "locale": "en_US",
      "latitude": 32.7767,
      "longitude": -96.7970,
      "region": "Texas"
    },
    {
      "name": "San Jose",
      "country": "United States",
      "locale": "en_US",
      "latitude": 37.3382,
      "longitude": -121.8863,
      "region": "California"
    },
    {
      "name": "Madrid",
      "country": "Spain",
      "locale": "es_ES",
      "latitude": 40.4168,
      "longitude": -3.7038,
      "region": "Madrid"
    },
    {
      "name": "Barcelona",
      "country": "Spain",
      "locale": "es_ES",
      "latitude": 41.3851,
      "longitude": 2.1734,
      "region": "Catalonia"
    },
    {
      "name": "Valencia",
      "country": "Spain",
      "locale": "es_ES",
      "latitude": 39.4699,
      "longitude": -0.3763,
      "region": "Valencia"
    },
    {
      "name": "Seville",
      "country": "Spain",
      "locale": "es_ES",
      "latitude": 37.3891,
      "longitude": -5.9845,
      "region": "Andalusia"
    },
    {
      "name": "Berlin",
      "country": "Germany",
      "locale": "de_DE",
      "latitude": 52.5200,
      "longitude": 13.4050,
      "region": "Berlin"
    },
    {
      "name": "Hamburg",
      "country": "Germany",
      "locale": "de_DE",
      "latitude": 53.5511,
      "longitude": 9.9937,
      "region": "Hamburg"
    },
    {
      "name": "Munich",
      "country": "Germany",
      "locale": "de_DE",
      "latitude": 48.1351,
      "longitude": 11.5820,
      "region": "Bavaria"
    },
    {
      "name": "Cologne",
      "country": "Germany",
      "locale": "de_DE",
      "latitude": 50.9375,
      "longitude": 6.9603,
      "region": "North Rhine-Westphalia"
    },
    {
      "name": "Rome",
      "country": "Italy",
      "locale": "it_IT",
      "latitude": 41.9028,
      "longitude": 12.4964,
      "region": "Lazio"
    },
    {
      "name": "Milan",
      "country": "Italy",
      "locale": "it_IT",
      "latitude": 45.4642,
      "longitude": 9.1900,
      "region": "Lombardy"
    },
    {
      "name": "Naples",
      "country": "Italy",
      "locale": "it_IT",
      "latitude": 40.8518,
      "longitude": 14.2681,
      "region": "Campania"
    },
    {
      "name": "Turin",
      "country": "Italy",
      "locale": "it_IT",
      "latitude": 45.0703,
      "longitude": 7.6869,
      "region": "Piedmont"
    },
    {
      "name": "Amsterdam",
      "country": "Netherlands",
      "locale": "nl_NL",
      "latitude": 52.3676,
      "longitude": 4.9041,
      "region": "North Holland"
    },
    {
      "name": "Rotterdam",
      "country": "Netherlands",
      "locale": "nl_NL",
      "latitude": 51.9225,
      "longitude": 4.4792,
      "region": "South Holland"
    },
    {
      "name": "The Hague",
      "country": "Netherlands",
      "locale": "nl_NL",
      "latitude": 52.0705,
      "longitude": 4.3007,
      "region": "South Holland"
    },
    {
      "name": "Stockholm",
      "country": "Sweden",
      "locale": "sv_SE",
      "latitude": 59.3293,
      "longitude": 18.0686,
      "region": "Stockholm County"
    },
    {
      "name": "Gothenburg",
      "country": "Sweden",
      "locale": "sv_SE",
      "latitude": 57.7089,
      "longitude": 11.9746,
      "region": "Västra Götaland"
    },
    {
      "name": "Malmö",
      "country": "Sweden",
      "locale": "sv_SE",
      "latitude": 55.6050,
      "longitude": 13.0038,
      "region": "Skåne"
    },
    {
      "name": "Oslo",
      "country": "Norway",
      "locale": "no_NO",
      "latitude": 59.9139,
      "longitude": 10.7522,
      "region": "Oslo"
    },
    {
      "name": "Bergen",
      "country": "Norway",
      "locale": "no_NO",
      "latitude": 60.3913,
      "longitude": 5.3221,
      "region": "Vestland"
    },
    {
      "name": "Copenhagen",
      "country": "Denmark",
      "locale": "da_DK",
      "latitude": 55.6761,
      "longitude": 12.5683,
      "region": "Capital Region"
    },
    {
      "name": "Aarhus",
      "country": "Denmark",
      "locale": "da_DK",
      "latitude": 56.1629,
      "longitude": 10.2039,
      "region": "Central Jutland"
    },
    {
      "name": "Helsinki",
      "country": "Finland",
      "locale": "fi_FI",
      "latitude": 60.1699,
      "longitude": 24.9384,
      "region": "Uusimaa"
    },
    {
      "name": "Tampere",
      "country": "Finland",
      "locale": "fi_FI",
      "latitude": 61.4978,
      "longitude": 23.7610,
      "region": "Pirkanmaa"
    },
    {
      "name": "Warsaw",
      "country": "Poland",
      "locale": "pl_PL",
      "latitude": 52.2297,
      "longitude": 21.0122,
      "region": "Masovian"
    },
    {
      "name": "Krakow",
      "country": "Poland",
      "locale": "pl_PL",
      "latitude": 50.0647,
      "longitude": 19.9450,
      "region": "Lesser Poland"
    },
    {
      "name": "Prague",
      "country": "Czech Republic",
      "locale": "cs_CZ",
      "latitude": 50.0755,
      "longitude": 14.4378,
      "region": "Prague"
    },
    {
      "name": "Brno",
      "country": "Czech Republic",
      "locale": "cs_CZ",
      "latitude": 49.1951,
      "longitude": 16.6068,
      "region": "South Moravian"
    },
    {
      "name": "Budapest",
      "country": "Hungary",
      "locale": "hu_HU",
      "latitude": 47.4979,
      "longitude": 19.0402,
      "region": "Budapest"
    },
    {
      "name": "Vienna",
      "country": "Austria",
      "locale": "de_AT",
      "latitude": 48.2082,
      "longitude": 16.3738,
      "region": "Vienna"
    },
    {
      "name": "Zurich",
      "country": "Switzerland",
      "locale": "de_CH",
      "latitude": 47.3769,
      "longitude": 8.5417,
      "region": "Zurich"
    },
    {
      "name": "Geneva",
      "country": "Switzerland",
      "locale": "fr_CH",
      "latitude": 46.2044,
      "longitude": 6.1432,
      "region": "Geneva"
    },
    {
      "name": "Brussels",
      "country": "Belgium",
      "locale": "fr_BE",
      "latitude": 50.8503,
      "longitude": 4.3517,
      "region": "Brussels-Capital"
    },
    {
      "name": "Antwerp",
      "country": "Belgium",
      "locale": "nl_BE",
      "latitude": 51.2194,
      "longitude": 4.4025,
      "region": "Antwerp"
    },
    {
      "name": "Dublin",
      "country": "Ireland",
      "locale": "en_IE",
      "latitude": 53.3498,
      "longitude": -6.2603,
      "region": "Leinster"
    },
    {
      "name": "Cork",
      "country": "Ireland",
      "locale": "en_IE",
      "latitude": 51.8969,
      "longitude": -8.4863,
      "region": "Munster"
    }
  ]
}
